City_ID,City,Cloudiness,Country,Date,Humidity,Lat,Lng,Max Temp,Wind Speed
0,iqaluit,20,CA,1537862400,74,63.75,-68.52,33.8,4.7
1,ushuaia,75,AR,1537862400,55,-54.81,-68.31,35.6,13.87
2,vaini,56,IN,1537865287,64,15.34,74.49,84.58,3.87
3,yellowknife,5,CA,1537862400,92,62.45,-114.38,30.2,6.93
4,butaritari,48,KI,1537865288,100,3.07,172.79,84.94,9.13
5,kapaa,90,US,1537862160,100,22.08,-159.32,78.08,7.34
6,yamada,75,JP,1537862400,72,36.58,137.08,68.0,8.05
7,pitimbu,40,BR,1537862400,100,-7.47,-34.81,71.6,11.88
8,punta arenas,0,CL,1537862400,79,-53.16,-70.91,28.4,4.7
9,rio gallegos,0,AR,1537862400,86,-51.62,-69.22,28.4,4.7
10,mahebourg,40,MU,1537862400,57,-20.41,57.7,80.6,12.75
11,puri,20,ID,1537862400,36,-7.54,112.45,93.2,13.87
12,rikitea,88,PF,1537865291,100,-23.12,-134.97,70.81,22.88
13,ambanja,20,MG,1537862400,48,-13.68,48.45,86.0,6.93
14,tuktoyaktuk,64,CA,1537865291,100,69.44,-133.03,28.33,10.25
15,yarada,0,IN,1537865012,100,17.65,83.27,84.76,13.78
16,adrar,0,DZ,1537862400,47,27.87,-0.29,78.8,5.82
17,talaya,92,RU,1537865292,97,55.79,84.89,50.65,12.93
18,ilulissat,92,GL,1537861800,92,69.22,-51.1,30.2,5.82
19,busselton,0,AU,1537865293,98,-33.64,115.35,62.53,13.04
20,mataura,92,NZ,1537865293,93,-46.19,168.86,42.55,26.91
21,narsaq,20,GL,1537861800,83,60.91,-46.05,32.0,4.7
22,berlevag,40,NO,1537863600,86,70.86,29.09,37.4,20.8
23,sun city west,1,US,1537864500,15,33.66,-112.34,87.08,6.93
24,cape town,75,ZA,1537862400,72,-33.93,18.42,59.0,18.34
25,clyde river,90,CA,1537862400,79,70.47,-68.59,21.2,3.36
26,puerto ayora,92,EC,1537865296,100,-0.74,-90.35,69.01,11.32
27,celestun,36,MX,1537865296,100,20.87,-90.4,81.16,11.81
28,concepcion del uruguay,88,AR,1537865296,69,-32.48,-58.24,59.83,15.05
29,torbay,90,CA,1537862400,80,47.66,-52.73,44.6,10.29
30,bayshore gardens,1,US,1537864500,100,27.43,-82.59,80.06,6.93
31,tarabuco,80,BO,1537865297,99,-19.18,-64.92,50.29,2.86
32,beira,0,ES,1537864200,55,43.2,-8.36,62.6,2.24
33,tabuk,24,PH,1537865298,70,17.41,121.44,77.83,2.3
34,north platte,1,US,1537861980,89,41.12,-100.77,51.98,6.93
35,hermanus,44,ZA,1537865298,80,-34.42,19.24,57.31,10.09
36,teguldet,92,RU,1537865299,98,57.31,88.17,50.11,8.23
37,port elizabeth,90,US,1537864020,100,39.31,-74.98,69.8,16.11
38,victoria,75,BN,1537864200,66,5.28,115.24,87.8,4.7
39,kenai,1,US,1537862160,71,60.55,-151.26,51.08,18.34
40,coihaique,20,CL,1537862400,93,-45.58,-72.07,35.6,5.82
41,souillac,20,FR,1537864200,54,45.6,-0.6,57.2,18.34
42,tasiilaq,12,GL,1537861800,74,65.61,-37.64,33.8,4.7
43,new norfolk,75,AU,1537864200,53,-42.78,147.06,50.0,10.29
44,port alfred,8,ZA,1537865301,73,-33.59,26.89,74.14,15.9
45,russell,0,AR,1537862400,71,-33.01,-68.8,50.0,2.19
46,geraldton,90,CA,1537864920,100,49.72,-86.95,51.8,3.36
47,bluff,48,AU,1537865302,38,-23.58,149.07,75.67,9.24
48,longyearbyen,75,NO,1537863600,80,78.22,15.63,35.6,16.11
49,saint-pierre,0,FR,1537864200,76,48.95,4.24,53.6,12.75
50,barrow,12,AR,1537865304,90,-38.31,-60.23,43.81,8.23
51,pochutla,64,MX,1537865304,100,15.74,-96.47,80.44,2.75
52,cherskiy,48,RU,1537865304,91,68.75,161.3,31.93,3.49
53,bellevue,1,US,1537863300,77,47.61,-122.19,55.94,4.76
54,ornes,0,FR,1537864200,71,49.25,5.47,51.8,11.41
55,boa vista,0,BR,1537862400,78,2.82,-60.67,78.8,4.7
56,upernavik,80,GL,1537865307,100,72.79,-56.15,29.95,5.73
57,hilo,92,US,1537865308,100,19.71,-155.08,75.85,9.53
58,esperance,20,TT,1537862400,94,10.24,-61.45,75.2,5.21
59,atherton,0,GB,1537863600,81,53.52,-2.49,48.2,4.7
60,castro,76,CL,1537865309,87,-42.48,-73.76,44.53,8.01
61,albany,90,US,1537862040,71,42.65,-73.75,51.98,4.7
62,kapit,88,MY,1537865310,95,2.02,112.94,76.03,1.36
63,port blair,64,IN,1537865310,100,11.67,92.75,81.16,8.01
64,virovitica,40,HR,1537863300,50,45.83,17.39,53.6,17.22
65,qaanaaq,0,GL,1537865310,100,77.48,-69.36,10.78,8.75
66,mercedes,92,UY,1537865311,64,-33.25,-58.03,58.93,16.13
67,avarua,20,CK,1537862400,78,-21.21,-159.78,71.6,5.82
68,madimba,75,CM,1537862400,83,4.42,9.93,82.4,5.82
69,nome,90,US,1537863300,91,30.04,-94.42,77.0,3.09
70,norman wells,75,CA,1537862400,100,65.28,-126.83,28.4,5.82
71,zhigansk,80,RU,1537865313,68,66.77,123.37,46.51,6.22
72,nuuk,92,GL,1537861800,93,64.17,-51.74,35.6,3.36
73,hobart,75,AU,1537864200,53,-42.88,147.33,50.0,10.29
74,vao,44,EE,1537865313,63,59.1,26.19,47.41,15.17
75,faanui,76,PF,1537865314,100,-16.48,-151.75,78.01,15.68
76,tiksi,92,RU,1537865314,98,71.64,128.87,35.08,10.8
77,broken hill,0,AU,1537865314,38,-31.97,141.45,62.26,9.35
78,bredasdorp,36,ZA,1537862400,55,-34.53,20.04,66.2,18.34
79,saint-philippe,1,CA,1537863300,81,45.36,-73.48,53.6,10.29
80,balkanabat,0,TM,1537865315,28,39.51,54.36,84.49,2.08
81,pak phanang,75,TH,1537862400,66,8.35,100.2,84.2,12.75
82,donskoye,0,RU,1537862400,42,45.45,41.98,80.6,8.95
83,sitka,64,US,1537865316,68,37.17,-99.65,65.05,9.31
84,chuy,68,UY,1537865316,85,-33.69,-53.46,57.94,10.8
85,meulaboh,20,ID,1537865317,100,4.14,96.13,82.06,4.83
86,atuona,20,PF,1537865317,100,-9.8,-139.03,79.63,8.01
87,ribeira grande,20,PT,1537864200,68,38.52,-28.7,69.8,6.93
88,sault sainte marie,90,CA,1537863300,96,46.49,-84.36,62.06,4.7
89,manokwari,76,ID,1537865318,100,-0.87,134.08,82.51,3.83
90,jucas,0,BR,1537865318,64,-6.53,-39.53,76.12,10.8
91,qaqortoq,20,GL,1537861800,100,60.72,-46.03,32.0,4.7
92,maua,8,KE,1537865319,70,0.23,37.94,73.33,8.01
93,chokurdakh,88,RU,1537865319,92,70.62,147.9,34.54,6.89
94,rocha,8,UY,1537865319,89,-34.48,-54.34,47.23,6.33
95,bhadrachalam,64,IN,1537865320,83,17.67,80.89,85.66,5.77
96,hithadhoo,32,MV,1537865320,100,-0.6,73.08,84.31,7.23
97,jamestown,0,AU,1537865320,36,-33.21,138.6,57.31,6.33
98,carmo do rio verde,0,BR,1537865321,73,-15.36,-49.71,66.4,1.74
99,general higinio morinigo,12,PY,1537865321,75,-25.95,-55.92,68.92,2.98
100,airai,12,TL,1537865321,43,-8.93,125.41,81.16,1.25
101,radom,0,PL,1537865322,82,51.4,21.15,50.65,16.17
102,tutoia,8,BR,1537865322,83,-2.76,-42.27,77.56,15.46
103,talnakh,0,RU,1537865323,89,69.49,88.39,44.26,10.36
104,sohbatpur,0,PK,1537865323,41,28.52,68.54,100.06,5.55
105,santa isabel do rio negro,32,BR,1537865323,88,-0.41,-65.02,77.11,2.98
106,prince rupert,90,CA,1537864800,100,54.32,-130.32,53.6,2.24
107,muroto,75,JP,1537862400,53,33.37,134.14,77.0,13.87
108,utica,90,US,1537861980,89,43.1,-75.23,51.08,14.99
109,saldanha,0,PT,1537865324,42,41.42,-6.55,57.85,8.79
110,rehoboth,8,NA,1537865325,32,-23.31,17.08,79.45,7.29
111,muros,0,ES,1537864200,58,42.77,-9.06,59.0,10.29
112,ancud,80,CL,1537865325,75,-41.87,-73.83,45.7,7.23
113,namibe,12,AO,1537865326,97,-15.19,12.15,67.39,5.5
114,dikson,92,RU,1537865326,94,73.51,80.55,40.3,27.36
115,kieta,92,PG,1537865326,100,-6.22,155.63,73.96,4.09
116,severo-kurilsk,48,RU,1537865326,94,50.68,156.12,51.73,11.88
117,constitucion,56,MX,1537865327,94,23.99,-104.67,54.61,4.38
118,belaya gora,80,RU,1537865327,89,68.54,146.19,34.45,3.27
119,port lincoln,12,AU,1537865327,88,-34.72,135.86,56.32,12.03
120,fort saint james,36,CA,1537865328,84,54.43,-124.25,44.08,4.99
121,port moresby,40,PG,1537862400,78,-9.47,147.16,77.0,19.46
122,lagoa,0,PT,1537864200,30,37.14,-8.45,84.2,9.17
123,kahului,1,US,1537862160,87,20.89,-156.47,77.0,6.89
124,nikolskoye,75,RU,1537862400,70,59.7,30.79,46.4,15.66
125,dunedin,20,NZ,1537865313,72,-45.87,170.5,41.74,24.74
126,shingu,75,JP,1537862400,69,33.72,135.99,73.4,8.05
127,sao filipe,0,CV,1537865330,98,14.9,-24.5,76.93,10.36
128,presidencia roque saenz pena,75,AR,1537860720,94,-26.79,-60.44,69.8,8.05
129,manado,40,ID,1537864200,94,1.49,124.85,77.0,2.24
130,east london,0,ZA,1537862400,37,-33.02,27.91,82.4,10.29
131,cidreira,80,BR,1537865331,96,-30.17,-50.22,63.88,13.38
132,rorvik,75,NO,1537863600,81,64.86,11.24,51.8,17.22
133,araouane,32,ML,1537865332,45,18.9,-3.53,87.73,4.72
134,luderitz,56,NA,1537865332,100,-26.65,15.16,55.06,2.82
135,provideniya,36,RU,1537865333,100,64.42,-173.23,43.27,10.02
136,college,90,US,1537862280,94,64.86,-147.8,44.96,12.75
137,cabo san lucas,8,MX,1537865114,100,22.89,-109.91,81.79,8.57
138,uni,92,RU,1537865333,87,57.75,51.49,55.51,7.4
139,urucara,12,BR,1537865333,67,-2.54,-57.76,79.81,3.83
140,tilichiki,76,RU,1537865334,87,60.47,166.1,40.21,2.48
141,kalianget,64,ID,1537865334,76,-7.35,109.91,76.57,1.52
142,thompson,20,CA,1537864380,92,55.74,-97.86,26.6,3.36
143,sovkhoznyy,75,RU,1537862400,93,45.29,38.11,59.0,17.9
144,lebu,0,ET,1537865335,34,8.96,38.73,72.07,8.41
145,kaitangata,76,NZ,1537865336,92,-46.28,169.85,42.55,30.15
146,ilesha,92,NG,1537865336,82,7.14,5.26,80.53,4.32
147,norden,40,DE,1537863900,76,53.59,7.21,53.6,10.29
148,bisira,92,PA,1537865337,98,8.52,-81.71,68.29,2.04
149,fortuna,40,ES,1537864200,74,38.18,-1.13,78.8,8.05
150,laizhou,80,CN,1537865337,70,37.18,119.93,71.17,6.06
151,pierre,90,US,1537861980,100,44.37,-100.35,48.92,9.01
152,carnarvon,80,ZA,1537865338,15,-30.97,22.13,77.11,21.72
153,inhambane,20,MZ,1537862400,58,-23.87,35.38,82.4,9.17
154,pfullendorf,0,DE,1537863600,66,47.92,9.25,50.0,14.99
155,crotone,20,IT,1537861800,49,39.09,17.12,68.0,29.97
156,pedernales,100,EC,1537865339,90,0.07,-80.05,71.62,4.32
157,moranbah,24,AU,1537865339,44,-22.0,148.04,73.24,11.77
158,nanortalik,0,GL,1537865340,98,60.14,-45.24,37.24,22.62
159,sohag,0,EG,1537865341,46,26.55,31.7,87.91,13.15
160,loiza,75,PR,1537862160,93,18.43,-65.88,80.96,3.36
161,kerrobert,20,CA,1537862400,93,51.92,-109.14,35.6,12.75
162,lerwick,20,GB,1537863600,81,60.15,-1.15,53.6,17.22
163,ballina,75,IE,1537862400,93,54.11,-9.15,46.4,18.34
164,sulangan,44,PH,1537865343,97,11.14,123.72,85.3,17.29
165,kavieng,80,PG,1537865343,100,-2.57,150.8,83.23,12.88
166,eureka,1,US,1537864500,76,40.8,-124.16,55.4,13.87
167,yakeshi,0,CN,1537865344,80,49.28,120.73,54.34,3.04
168,mitsamiouli,75,KM,1537862400,65,-11.38,43.28,80.6,6.93
169,lafiagi,88,NG,1537865345,98,8.85,5.42,77.74,4.99
170,elko,1,US,1537862160,16,40.83,-115.76,41.0,4.7
171,hutchinson,1,US,1537863480,100,38.06,-97.93,64.94,4.7
172,nago,0,IT,1537863600,31,45.88,10.89,64.4,9.17
173,rundu,0,NA,1537865346,16,-17.91,19.77,92.77,11.14
174,cayenne,20,GF,1537862400,100,4.94,-52.33,73.4,1.12
175,georgetown,20,GY,1537862400,100,6.8,-58.16,73.4,4.7
176,steubenville,90,US,1537863420,93,40.37,-80.63,66.02,11.41
177,pevek,80,RU,1537865347,100,69.7,170.27,35.53,12.03
178,anyang,92,CN,1537865347,97,36.1,114.34,61.09,5.1
179,port hedland,0,AU,1537864200,31,-20.31,118.58,89.6,13.87
180,saint george,75,GR,1537863600,45,39.45,22.34,64.4,18.34
181,parrita,56,CR,1537865348,100,9.52,-84.33,75.67,3.83
182,high level,90,CA,1537862400,74,58.52,-117.13,33.8,2.24
183,miandrivazo,0,MG,1537865349,35,-19.53,45.46,90.79,3.98
184,aswan,0,EG,1537862400,18,24.09,32.9,96.8,11.41
185,leningradskiy,76,RU,1537865349,99,69.38,178.42,38.95,12.44
186,villaviciosa,0,ES,1537864200,67,43.48,-5.43,60.8,6.93
187,malm,75,NO,1537863600,81,64.07,11.22,50.0,17.22
188,padang,20,ID,1537865350,100,-0.92,100.36,81.25,4.38
189,codrington,68,AU,1537865351,91,-28.95,153.24,55.24,2.59
190,goderich,92,CA,1537865351,96,43.74,-81.71,64.24,21.72
191,brilon,0,DE,1537863600,81,51.4,8.57,55.4,3.36
192,kontagora,36,NG,1537865352,100,10.4,5.47,79.36,5.84
193,beringovskiy,0,RU,1537865352,100,63.05,179.32,40.93,6.22
194,lata,68,IN,1537865352,100,30.78,78.62,60.73,0.29
195,kondopoga,75,RU,1537862400,81,62.21,34.27,42.8,11.18
196,ivesti,0,RO,1537865207,71,45.68,27.52,58.3,11.43
197,lasa,20,CY,1537864200,74,34.92,32.53,84.2,14.99
198,katsuura,75,JP,1537862400,73,33.93,134.5,71.6,4.7
199,tucuman,0,PE,1537865354,65,-17.17,-70.89,46.78,2.19
200,chanika,0,MW,1537865354,57,-12.93,34.19,81.07,6.85
201,hasaki,75,JP,1537863180,93,35.73,140.83,66.2,12.75
202,hay river,20,CA,1537862400,64,60.82,-115.79,35.6,8.05
203,vila franca do campo,20,PT,1537864200,83,37.72,-25.43,69.8,6.93
204,skeldon,32,GY,1537865355,100,5.88,-57.13,80.53,5.84
205,lompoc,75,US,1537864500,93,34.64,-120.46,60.98,3.98
206,anderson,90,US,1537864500,100,34.51,-82.65,69.98,4.7
207,guerrero negro,0,MX,1537865356,100,27.97,-114.04,64.51,8.86
208,belyy yar,0,RU,1537862400,45,53.6,91.39,62.6,8.95
209,mount gambier,0,AU,1537865167,66,-37.83,140.78,50.92,5.55
210,ketchikan,40,US,1537863300,96,55.34,-131.65,53.96,4.32
211,aklavik,90,CA,1537862400,92,68.22,-135.01,26.6,3.36
212,santa branca,75,BR,1537862400,88,-23.4,-45.88,64.4,2.24
213,mayumba,88,GA,1537865358,99,-3.44,10.65,75.76,6.4
214,maniitsoq,88,GL,1537865358,100,65.42,-52.9,34.81,8.41
215,inirida,44,CO,1537865358,96,3.87,-67.92,73.24,1.97
216,san pedro de cajas,20,PE,1537865359,89,-11.25,-75.86,37.15,1.97
217,romny,92,UA,1537865359,88,50.74,33.49,50.2,13.15
218,yerofey pavlovich,0,RU,1537865359,51,53.97,121.97,54.16,4.21
219,cap malheureux,40,MU,1537862400,57,-19.98,57.61,80.6,12.75
220,hervey bay,80,AU,1537865360,96,-25.3,152.85,68.11,11.14
221,conceicao do araguaia,56,BR,1537865360,95,-8.26,-49.26,73.51,2.98
222,camacha,75,PT,1537864200,73,33.08,-16.33,73.4,12.75
223,plettenberg bay,36,ZA,1537865361,100,-34.05,23.37,60.19,15.84
224,vangaindrano,0,MG,1537865361,75,-23.35,47.6,79.27,7.23
225,kruisfontein,76,ZA,1537865362,84,-34.0,24.73,63.88,18.92
226,san andres,0,PH,1537865362,94,13.32,122.68,85.75,12.03
227,siderno,0,IT,1537861800,65,38.28,16.3,80.6,5.82
228,ahipara,88,NZ,1537865363,81,-35.17,173.16,54.7,18.81
229,shahr-e babak,0,IR,1537865363,35,30.12,55.12,78.82,7.29
230,lorengau,64,PG,1537865363,100,-2.02,147.27,83.95,5.77
231,phangnga,40,TH,1537864200,83,8.45,98.53,84.2,3.36
232,sola,75,NO,1537863600,93,58.89,5.65,53.6,6.93
233,choix,0,MX,1537865364,95,26.71,-108.33,69.37,2.3
234,timaru,0,NZ,1537865365,77,-44.39,171.25,44.71,12.37
235,marawi,88,PH,1537865365,94,8.0,124.29,70.99,3.38
236,quatre cocos,40,MU,1537862400,57,-20.21,57.76,80.6,12.75
237,san policarpo,24,PH,1537865366,85,12.18,125.51,84.49,16.58
238,mar del plata,92,AR,1537865366,100,-46.43,-67.52,40.3,11.59
239,lavrentiya,88,RU,1537865366,99,65.58,-170.99,42.28,11.32
240,kudahuvadhoo,44,MV,1537865366,100,2.67,72.89,82.42,10.36
241,gizo,20,IL,1537863600,48,31.8,34.94,87.8,4.7
242,sao joao da barra,0,BR,1537865367,96,-21.64,-41.05,74.41,18.7
243,pampa,1,US,1537863300,50,35.54,-100.96,69.98,13.87
244,yandyki,0,RU,1537865368,71,45.77,47.13,74.05,15.95
245,bayburt,0,TR,1537865368,24,40.26,40.22,74.14,3.31
246,saskylakh,88,RU,1537865368,90,71.97,114.09,35.44,12.26
247,kutum,0,SD,1537865369,17,14.2,24.66,92.05,13.56
248,puerto escondido,24,MX,1537865369,100,15.86,-97.07,81.61,6.51
249,surt,56,LY,1537865369,87,31.21,16.59,81.25,8.23
250,starobaltachevo,0,RU,1537865370,73,56.0,55.92,64.51,18.14
251,mpulungu,0,ZM,1537865370,30,-8.77,31.12,83.41,9.31
252,axim,76,GH,1537865370,100,4.87,-2.24,78.46,10.02
253,wadi musa,0,JO,1537865371,65,30.32,35.48,81.61,3.27
254,ciudad bolivar,12,VE,1537865371,91,8.12,-63.55,75.94,6.29
255,isiro,80,CD,1537865371,87,2.77,27.62,73.69,2.98
256,isangel,92,VU,1537865372,100,-19.55,169.27,72.88,16.58
257,bam,32,IR,1537865372,11,29.11,58.36,93.13,8.3
258,dese,0,IT,1537863600,39,45.53,12.3,62.6,9.17
259,del rio,1,US,1537862160,90,29.36,-100.9,73.04,6.93
260,khatanga,0,RU,1537865373,87,71.98,102.47,36.43,17.29
261,nichinan,75,JP,1537862400,65,31.65,131.31,78.8,20.8
262,shawnee,1,US,1537863300,96,35.33,-96.93,68.0,5.82
263,shetpe,0,KZ,1537865374,29,44.14,52.16,83.86,4.88
264,ivankiv,75,UA,1537862400,87,50.93,29.9,48.2,17.9
265,walvis bay,90,NA,1537862400,87,-22.95,14.51,55.4,6.93
266,kuzedeyevo,92,RU,1537865375,76,53.33,87.2,52.81,5.55
267,arlit,0,NE,1537865375,16,18.74,7.39,97.45,9.86
268,uhlove,92,UA,1537865375,100,44.82,33.6,55.15,12.33
269,hinton,80,CA,1537865376,70,53.4,-117.57,38.23,4.83
270,taoudenni,0,ML,1537865376,28,22.68,-3.98,89.71,4.99
271,marquette,90,US,1537863480,93,46.54,-87.4,62.96,11.41
272,bubaque,40,GW,1537862400,94,11.28,-15.83,77.0,3.36
273,nyagan,64,RU,1537865377,68,62.14,65.43,63.25,6.73
274,bethel,75,US,1537863480,100,60.79,-161.76,44.06,6.93
275,havoysund,75,NO,1537863600,86,71.0,24.66,39.2,24.16
276,coquimbo,90,CL,1537862400,87,-29.95,-71.34,53.6,5.82
277,dawlatabad,48,AF,1537865378,24,36.41,64.91,83.5,5.61
278,nhulunbuy,40,AU,1537864200,69,-12.18,136.78,78.8,13.87
279,broome,0,GB,1537863600,93,52.47,1.45,48.2,3.36
280,tuensang,80,IN,1537865379,79,26.24,94.81,75.13,2.19
281,pisco,48,PE,1537862400,93,-13.71,-76.2,55.4,1.12
282,stuhr,20,DE,1537863600,87,53.03,8.75,51.8,4.7
283,nouadhibou,0,MR,1537862400,88,20.93,-17.03,73.4,16.11
284,alofi,64,NU,1537862400,100,-19.06,-169.92,73.4,1.12
285,jumla,48,NP,1537865381,91,29.28,82.18,51.46,0.29
286,alice springs,0,AU,1537864200,11,-23.7,133.88,80.6,10.29
287,yozgat,0,TR,1537865382,23,39.82,34.81,83.05,4.21
288,kibala,20,TD,1537862400,69,9.11,18.35,80.6,6.93
289,binga,0,ZW,1537865383,42,-17.62,27.34,87.55,13.89
290,silifke,0,TR,1537865383,63,36.38,33.93,82.15,4.32
291,santa maria,20,BR,1537865384,95,-29.69,-53.81,60.01,11.1
292,arraial do cabo,44,BR,1537865384,100,-22.97,-42.02,71.08,4.5
293,agadez,0,NE,1537862400,18,16.97,7.99,96.8,27.51
294,barkhan,0,PK,1537865385,28,29.9,69.52,87.28,6.06
295,saint-augustin,0,FR,1537864200,62,44.83,-0.61,55.4,13.87
296,san patricio,32,PY,1537865385,91,-26.98,-56.83,66.94,4.5
297,fukue,75,JP,1537862400,73,35.03,136.69,71.6,10.29
298,roebourne,20,AU,1537865386,12,-20.77,117.15,97.09,10.54
299,mendoza,0,AR,1537862400,71,-32.89,-68.84,50.0,2.19
300,husavik,76,CA,1537865387,100,50.56,-96.99,41.74,8.08
301,fort nelson,75,CA,1537862400,70,58.81,-122.69,44.6,4.7
302,mumford,76,GH,1537865387,91,5.26,-0.76,78.73,7.78
303,matara,92,PE,1537865388,99,-13.74,-72.9,38.32,2.08
304,kotturu,44,IN,1537865388,71,14.82,76.23,82.42,7.56
305,muisne,92,EC,1537865388,95,0.61,-80.02,71.89,3.83
306,sapa,68,PH,1537865389,78,14.32,120.76,84.4,17.07
307,port augusta,0,AU,1537862400,55,-32.49,137.76,60.8,14.99
308,quarter,12,GB,1537863600,71,55.74,-4.03,53.6,14.99
309,mango,20,IT,1537863600,37,44.69,8.15,69.8,5.82
310,polunochnoye,64,RU,1537865390,66,60.87,60.43,66.49,10.02
311,maningrida,24,AU,1537865390,59,-12.05,134.23,82.6,16.58
312,paraiso,56,MX,1537865391,94,24.01,-104.61,54.61,4.38
313,hovd,75,NO,1537863600,70,63.83,10.7,48.2,19.46
314,la union,88,GT,1537865392,98,14.97,-89.29,67.75,2.04
315,kargil,12,PK,1537865392,49,34.56,76.13,40.66,1.48
316,atasu,0,KZ,1537865392,57,48.68,71.64,62.71,7.56
317,nelson bay,0,AU,1537864200,62,-32.72,152.14,57.2,8.05
318,labuhan,64,ID,1537865393,60,-2.54,115.51,85.84,3.2
319,sandpoint,1,US,1537862160,93,48.28,-116.55,42.08,2.08
320,srednekolymsk,44,RU,1537865393,86,67.46,153.71,32.38,2.53
321,caravelas,0,BR,1537865394,100,-17.73,-39.27,76.39,14.45
322,abu zabad,8,SD,1537865394,57,12.35,29.25,91.51,6.73
323,san blas,44,MX,1537865394,94,21.54,-105.29,72.88,2.3
324,henties bay,12,NA,1537865395,100,-22.12,14.28,56.41,3.53
325,palmer,0,AU,1537864200,36,-34.85,139.16,60.8,9.17
326,iralaya,64,HN,1537865395,88,15.0,-83.23,81.61,8.75
327,mapimi,20,MX,1537865396,75,25.82,-103.85,56.23,1.74
328,salamanca,0,ES,1537864200,46,40.97,-5.66,53.6,9.17
329,rincon,20,US,1537865040,100,32.3,-81.24,77.36,4.7
330,zherdevka,56,RU,1537865397,91,51.84,41.47,53.89,12.1
331,faratsiho,0,MG,1537865397,30,-19.41,46.95,81.88,3.09
332,aykhal,32,RU,1537865398,50,65.95,111.51,52.63,3.6
333,avera,90,US,1537864500,97,33.19,-82.53,75.2,4.7
334,muravlenko,12,RU,1537865398,86,63.79,74.5,64.51,8.01
335,redcliffe,8,GB,1537863600,66,51.45,-2.59,51.8,4.7
336,edd,56,ER,1537865399,27,13.93,41.69,95.2,5.06
337,belomorsk,76,RU,1537865399,100,64.52,34.76,42.82,13.6
338,merauke,8,ID,1537865399,63,-8.49,140.4,84.58,18.41
339,sinjar,0,SY,1537865400,33,35.59,37.0,89.98,5.99
340,terrace,75,CA,1537862400,87,54.52,-128.61,53.6,8.05
341,opportunity,90,US,1537861980,13,46.11,-112.83,37.94,4.7
342,kultayevo,40,RU,1537862400,49,57.89,55.94,68.0,24.61
343,mount isa,0,AU,1537864200,13,-20.73,139.49,84.2,6.93
344,ust-nera,44,RU,1537865402,98,64.57,143.24,24.91,2.08
345,cascais,0,PT,1537864200,60,38.7,-9.42,73.4,9.17
346,kerman,32,IR,1537862400,14,30.29,57.06,78.8,4.7
347,yagoua,0,CM,1537865402,97,10.34,15.23,84.31,6.4
348,mpika,0,ZM,1537865403,33,-11.84,31.4,81.52,10.65
349,matamoros,20,US,1537861980,93,25.87,-97.51,80.96,5.82
350,omboue,88,GA,1537865403,100,-1.57,9.26,77.56,9.75
351,yerbogachen,24,RU,1537865403,38,61.28,108.01,57.76,6.4
352,moose factory,20,CA,1537862400,81,51.26,-80.61,51.8,12.75
353,pauini,56,BR,1537865404,84,-7.71,-67.0,76.84,2.19
354,cam ranh,32,VN,1537865404,100,11.92,109.15,80.89,5.88
355,hofn,92,IS,1537865405,100,64.25,-15.21,42.64,13.94
356,martinsburg,90,US,1537863300,100,39.46,-77.96,60.98,4.7
357,erenhot,0,CN,1537865405,27,43.65,111.97,67.75,6.85
358,yar-sale,20,RU,1537865284,79,66.83,70.83,59.29,10.87
359,santander,75,PH,1537862400,52,9.42,123.33,91.4,13.87
360,harper,1,US,1537863300,89,30.3,-99.24,71.6,7.4
361,poum,75,MK,1537864200,30,41.28,20.71,55.4,11.41
362,macas,8,EC,1537865407,83,-2.3,-78.12,57.76,2.59
363,mayo,90,CA,1537864560,87,63.59,-135.9,42.8,3.36
364,jiquipilas,76,MX,1537865408,98,16.67,-93.65,68.38,1.97
365,the valley,20,AI,1537862400,83,18.22,-63.06,80.6,11.41
366,tres picos,80,MX,1537865411,92,16.23,-93.58,67.66,2.19
367,mehamn,40,NO,1537863600,86,71.03,27.85,39.2,20.8
368,malinyi,44,TZ,1537865412,53,-8.94,36.14,83.95,4.54
369,mukhen,68,RU,1537865412,87,48.19,136.14,47.68,3.09
370,port hardy,20,CA,1537862400,87,50.7,-127.42,53.6,8.05
371,bonavista,64,CA,1537865260,100,48.65,-53.11,45.34,16.8
372,khani,0,GE,1537862400,42,41.96,42.96,86.0,16.11
373,gilgit,76,PK,1537865413,61,35.92,74.31,47.05,1.19
374,bykov,20,RU,1537862400,62,47.32,142.56,57.2,4.47
375,garden city,90,US,1537863660,96,40.73,-73.63,60.98,8.05
376,chikwawa,0,MW,1537865414,44,-16.03,34.79,91.51,0.96
377,salalah,20,OM,1537861800,66,17.01,54.1,84.2,11.41
378,tocopilla,48,CL,1537865415,100,-22.09,-70.2,52.63,3.27
379,kushima,75,JP,1537862400,65,31.5,131.29,78.8,20.8
380,cockburn town,64,TC,1537865162,96,21.46,-71.14,83.95,19.71
381,calama,0,CL,1537862400,14,-22.46,-68.93,44.6,18.34
382,kuala terengganu,75,MY,1537862400,75,5.33,103.14,89.6,4.7
383,makakilo city,90,US,1537863660,84,21.35,-158.09,80.96,3.36
384,itoman,75,JP,1537862400,74,26.12,127.67,84.2,16.11
385,kamen-na-obi,24,RU,1537865417,69,53.79,81.35,58.3,8.01
386,praia da vitoria,40,PT,1537862400,83,38.73,-27.07,71.6,16.17
387,kaeo,24,NZ,1537865417,62,-35.1,173.78,51.91,14.34
388,koslan,88,RU,1537865418,89,63.46,48.9,50.56,5.5
389,tongliao,0,CN,1537865418,72,43.61,122.27,63.16,3.04
390,sur,0,OM,1537865418,77,22.57,59.53,89.08,1.59
391,comodoro rivadavia,90,AR,1537862400,81,-45.87,-67.48,42.8,8.05
392,kaitong,0,CN,1537865419,76,44.81,123.15,61.99,2.98
393,sept-iles,40,CA,1537862400,79,50.2,-66.38,28.4,2.24
394,ingleside,75,CA,1537863300,71,45.0,-74.99,53.6,6.93
395,newport,0,GB,1537863600,66,51.59,-3.0,51.8,4.7
396,talara,0,PE,1537865421,95,-4.58,-81.27,62.26,4.32
397,bay roberts,75,CA,1537862400,65,47.58,-53.28,44.6,14.99
398,kodiak,20,US,1537861980,100,39.95,-94.76,62.96,3.36
399,kibre mengist,56,ET,1537865422,86,5.87,38.99,65.86,3.38
400,manoel urbano,32,BR,1537865422,92,-8.84,-69.26,73.51,2.08
401,vila velha,75,BR,1537862400,83,-3.71,-38.6,78.8,14.99
402,esil,0,KZ,1537865423,52,51.96,66.41,67.21,9.53
403,touros,56,BR,1537865423,88,-5.2,-35.46,77.38,12.88
404,plouzane,0,FR,1537864200,62,48.38,-4.62,55.4,6.93
405,nesbyen,24,NO,1537865424,64,60.57,9.1,41.47,5.73
406,anage,88,BR,1537865424,88,-14.61,-41.14,67.48,8.9
407,la ronge,40,CA,1537862400,86,55.1,-105.3,37.4,6.93
408,calabozo,68,VE,1537865424,95,8.92,-67.43,71.35,7.9
409,takaka,8,NZ,1537865425,86,-40.86,172.81,51.19,14.83
410,juba,40,EE,1537861800,65,57.82,26.93,46.4,14.99
411,kingaroy,92,AU,1537865425,100,-26.54,151.84,56.05,6.06
412,waingapu,0,ID,1537865426,41,-9.65,120.26,87.01,9.86
413,bathsheba,20,BB,1537862400,74,13.22,-59.52,80.6,16.11
414,moron,92,VE,1537865426,93,10.49,-68.2,66.94,2.19
415,luanda,90,AO,1537862400,78,-8.83,13.24,75.2,3.36
416,sinnamary,0,GF,1537865427,100,5.38,-52.96,80.98,6.06
417,ponta do sol,0,BR,1537865427,72,-20.63,-46.0,61.54,5.77
418,samarai,88,PG,1537865427,100,-10.62,150.67,77.74,18.52
419,mongoumba,24,CD,1537865428,76,3.64,18.59,82.69,2.19
420,qobu,75,AZ,1537862400,69,40.4,49.71,80.6,19.46
421,san jose,56,PH,1537865429,77,15.79,120.99,81.34,6.51
422,beliator,64,IN,1537865430,77,23.33,87.22,90.25,7.0
423,shache,0,CN,1537865430,19,38.42,77.24,82.33,7.74
424,azare,0,NG,1537865430,94,11.67,10.19,83.23,4.88
425,mogadishu,24,SO,1537865406,100,2.04,45.34,78.91,15.12
426,camargo,44,MX,1537865431,44,27.69,-105.17,69.46,9.53
427,ewa beach,90,US,1537863660,84,21.32,-158.01,80.96,3.36
428,chapais,1,CA,1537862400,65,49.78,-74.86,41.0,11.41
429,lawrenceburg,90,US,1537863420,94,35.24,-87.33,73.04,6.93
430,smirnykh,20,RU,1537865432,81,49.74,142.83,44.17,6.73
431,sira,8,IN,1537865432,73,13.74,76.91,84.49,9.31
432,shirokiy,92,RU,1537865432,84,53.87,39.17,50.29,18.63
433,serowe,0,BW,1537865433,33,-22.4,26.7,83.59,15.84
434,cefalu,88,IT,1537865433,75,38.04,14.02,73.78,2.37
435,manawar,0,IN,1537865433,77,22.23,75.09,88.9,9.08
436,taltal,36,CL,1537865433,100,-25.41,-70.49,49.39,1.97
437,whitianga,36,NZ,1537865434,100,-36.83,175.7,56.23,24.34
438,sloboda,0,RU,1537865434,53,57.03,59.56,66.76,10.13
439,lodja,12,CD,1537865410,83,-3.52,23.6,81.43,3.76
440,coahuayana,32,MX,1537865435,90,18.62,-100.35,64.78,2.08
441,pekan nenas,75,MY,1537864200,66,1.51,103.51,91.4,13.87
442,itarema,80,BR,1537865436,82,-2.92,-39.92,78.1,16.06
443,coromandel,36,NZ,1537864200,66,-36.76,175.5,53.6,23.04
444,ostrovnoy,92,RU,1537865137,100,68.05,39.51,37.51,11.25
445,barahona,32,DO,1537865437,100,18.21,-71.1,79.27,13.38
446,riachao das neves,8,BR,1537865437,56,-11.75,-44.91,67.39,4.61
447,nang rong,75,TH,1537862400,63,14.64,102.79,91.4,1.12
448,balsta,0,SE,1537863600,56,59.57,17.53,46.4,11.41
449,humboldt,76,CA,1537865438,96,52.21,-105.12,40.21,7.34
450,imbituba,75,BR,1537862400,88,-28.24,-48.67,69.8,4.7
451,dungarpur,0,IN,1537865439,83,23.85,73.71,87.19,8.86
452,cacoal,44,BR,1537865439,95,-11.43,-61.44,72.16,2.04
453,lagunillas,8,VE,1537865439,89,8.5,-71.39,55.69,1.48
454,marau,20,BR,1537865440,96,-28.45,-52.2,60.73,7.23
455,amapa,40,HN,1537862400,88,15.09,-87.97,78.8,2.19
456,joao pinheiro,0,BR,1537865440,57,-17.74,-46.17,67.57,9.08
457,progreso,0,UY,1537862400,81,-34.68,-56.22,51.8,5.82
458,sovetskiy,92,RU,1537865441,98,56.76,48.47,50.56,14.9
459,rosarito,24,CO,1537865442,99,4.91,-75.23,56.59,0.51
460,tchollire,12,CM,1537865442,93,8.4,14.17,83.68,4.21
461,yeppoon,90,AU,1537864200,64,-23.13,150.74,69.8,8.05
462,kovdor,0,RU,1537865442,68,67.56,30.47,38.5,5.99
463,bandarbeyla,0,SO,1537865443,92,9.49,50.81,79.45,22.62
464,bogdanovich,8,RU,1537865443,56,56.77,62.05,71.35,8.86
465,riobamba,0,EC,1537865443,82,-1.67,-78.65,28.78,0.25
466,normandin,20,CA,1537862400,73,48.84,-72.53,37.4,6.93
467,praia,0,BR,1537862400,72,-20.25,-43.81,64.4,3.04
468,itapetininga,0,BR,1537865187,89,-23.59,-48.05,59.11,6.78
469,klaksvik,92,FO,1537863600,93,62.23,-6.59,50.0,23.04
470,batticaloa,24,LK,1537865445,98,7.71,81.69,83.41,4.83
471,fairbanks,90,US,1537862280,94,64.84,-147.72,44.96,12.75
472,pingxiang,44,CN,1537865446,71,27.63,113.85,79.27,3.76
473,aden,0,YE,1537865446,100,12.79,45.03,83.05,13.44
474,kinablangan,20,PH,1537865446,93,7.69,126.55,85.93,3.09
475,rumboci,75,BA,1537864200,87,43.83,17.51,62.6,2.24
476,ugoofaaru,80,MV,1537865447,100,5.67,73.0,84.31,9.8
477,ravar,8,IR,1537865447,19,31.27,56.81,87.1,5.32
478,bambous virieux,40,MU,1537862400,57,-20.34,57.76,80.6,12.75
479,mackay,75,CA,1537862400,86,53.65,-115.58,41.0,3.36
480,kalmunai,32,LK,1537865448,100,7.42,81.82,79.18,3.49
481,marienburg,0,DE,1537863600,76,52.12,9.98,51.8,8.05
482,gambela,8,ET,1537865449,41,8.25,34.59,85.66,3.27
483,pangody,88,RU,1537865450,93,65.85,74.49,57.13,14.61
484,tbilisi,0,GE,1537862400,60,41.69,44.8,75.2,3.36
485,hoa binh,75,VN,1537864200,59,20.81,105.34,93.2,10.29
486,purranque,40,CL,1537862400,100,-40.91,-73.16,41.0,4.7
487,bafoulabe,32,ML,1537865451,96,13.81,-10.83,76.75,4.38
488,tual,0,ID,1537865451,96,-5.67,132.75,81.61,14.38
489,florence,90,US,1537863420,93,34.8,-87.68,73.4,5.82
490,hals,20,AT,1537863600,61,48.59,13.46,50.0,6.93
491,tura,44,IN,1537865452,92,25.52,90.21,80.8,6.73
492,stykkisholmur,80,IS,1537865452,100,65.08,-22.73,39.13,8.3
493,shebalino,88,RU,1537865453,81,51.29,85.68,41.38,2.75
494,athabasca,0,CA,1537865453,75,54.72,-113.29,30.31,2.82
495,mocuba,0,MZ,1537865453,48,-16.84,36.99,91.51,5.5
496,khandyga,88,RU,1537865454,71,62.65,135.58,42.01,5.77
497,mecca,0,SA,1537865454,33,21.43,39.83,101.86,9.42
498,gweta,0,BW,1537865454,24,-20.21,25.26,88.09,12.33
499,copiapo,48,CL,1537862400,93,-27.37,-70.33,53.6,4.7
500,puerto carreno,56,CO,1537865455,95,6.19,-67.49,68.11,2.86
501,piacabucu,100,BR,1537865455,83,-10.41,-36.43,74.59,6.33
502,havre-saint-pierre,20,CA,1537862400,86,50.23,-63.6,28.4,3.36
503,ambilobe,0,MG,1537865456,35,-13.19,49.05,91.78,17.92
504,half moon bay,90,US,1537864500,100,37.46,-122.43,60.98,4.7
505,champerico,80,MX,1537865456,92,16.38,-93.6,67.66,2.19
506,petropavlovsk-kamchatskiy,90,RU,1537862400,100,53.05,158.65,46.4,2.24
507,cururupu,100,BR,1537865457,85,-1.82,-44.87,78.19,6.22
508,fare,44,PF,1537865457,100,-16.7,-151.02,77.56,15.39
509,grindavik,75,IS,1537862400,87,63.84,-22.43,42.8,20.8
510,tulun,76,RU,1537865458,67,54.56,100.58,55.69,6.89
511,naze,75,NG,1537862400,94,5.43,7.07,78.8,2.98
512,nassau,75,DE,1537863600,75,51.17,13.51,46.4,11.41
513,opuwo,0,NA,1537865459,15,-18.06,13.84,85.21,8.9
514,casa nova,68,BR,1537865459,91,-11.77,-39.23,68.47,5.1
515,hirara,40,JP,1537862400,74,24.8,125.28,84.2,19.46
516,antalaha,76,MG,1537865460,90,-14.9,50.28,74.59,10.58
517,cordoba,0,CO,1537865460,85,5.59,-73.79,38.14,2.08
518,north tonawanda,90,US,1537862040,89,43.04,-78.86,60.08,9.17
519,minsk,75,BY,1537862400,75,53.9,27.56,44.6,13.42
520,tangzhai,92,CN,1537865461,91,26.73,109.0,74.95,1.07
521,menongue,56,AO,1537865461,28,-14.66,17.68,85.66,3.98
522,marzuq,0,YE,1537865461,11,14.4,46.47,87.28,9.91
523,shimoda,75,JP,1537862400,94,34.7,138.93,68.0,13.87
524,utevka,12,RU,1537865462,61,52.9,50.95,63.61,14.67
525,dalby,92,AU,1537862400,82,-27.18,151.26,57.2,17.22
526,inongo,8,CD,1537865463,77,-1.93,18.29,82.6,2.86
527,baruun-urt,24,MN,1537865463,28,46.68,113.28,63.34,4.5
528,te anau,92,NZ,1537865463,89,-45.41,167.72,38.23,12.37
529,jacqueville,75,CI,1537864200,78,5.21,-4.42,80.6,8.05
530,oranjemund,80,ZA,1537865464,95,-28.55,16.43,56.32,8.86
531,marfino,90,RU,1537862400,100,56.07,37.56,46.4,17.9
532,ust-maya,20,RU,1537865464,76,60.42,134.54,41.2,4.27
